City_ID,City,Lat,Lng,Max Temp,Humidity,Cloudiness,Wind Speed,Country,Date
0,rikitea,-23.12,-134.97,78.15,80,27,13.94,PF,1579375384
1,mataura,-46.19,168.86,59.0,94,81,3.0,NZ,1579375385
2,albany,42.6,-73.97,21.99,72,90,4.7,US,1579375385
3,freeport,40.66,-73.58,30.0,86,90,5.82,US,1579375165
4,saint-pierre,-21.34,55.48,80.6,83,100,3.36,RE,1579375385
5,souillac,-20.52,57.52,80.6,88,40,6.93,MU,1579375385
6,airai,-8.93,125.41,67.35,86,100,5.08,TL,1579375385
7,vaini,-21.2,-175.2,77.0,94,90,19.46,TO,1579375386
8,nampula,-15.12,39.27,77.0,100,75,3.36,MZ,1579375386
9,jamestown,42.1,-79.24,33.8,92,90,19.46,US,1579375386
10,bubaque,11.28,-15.83,77.38,55,1,11.7,GW,1579375386
11,mangaratiba,-22.96,-44.04,80.6,78,75,1.12,BR,1579375386
12,thompson,55.74,-97.86,-5.8,76,75,8.05,CA,1579375387
13,general roca,-39.03,-67.58,96.89,15,0,12.03,AR,1579375387
14,puerto quijarro,-17.78,-57.77,88.88,59,96,1.92,BO,1579375387
15,qaanaaq,77.48,-69.36,-16.33,67,71,6.04,GL,1579375387
16,fairbanks,64.84,-147.72,-9.99,73,0,2.04,US,1579375388
17,vrangel,42.73,133.08,26.89,58,51,7.74,RU,1579375388
18,upernavik,72.79,-56.15,-9.09,61,75,3.47,GL,1579375388
19,komsomolskiy,40.43,71.72,26.6,73,0,6.93,UZ,1579375389
20,trat,12.5,102.5,82.99,66,77,1.07,TH,1579375389
21,ushuaia,-54.8,-68.3,55.4,62,40,26.4,AR,1579375229
22,hobyo,5.35,48.53,77.81,72,38,20.27,SO,1579375390
23,pierre,44.37,-100.35,10.99,60,1,32.21,US,1579375226
24,springfield,37.22,-93.3,42.8,69,40,21.92,US,1579375260
25,isangel,-19.55,169.27,77.0,88,40,14.79,VU,1579375391
26,ribeira grande,38.52,-28.7,64.4,93,75,12.75,PT,1579375391
27,barranca,-10.75,-77.77,69.96,90,74,8.79,PE,1579375391
28,punta arenas,-53.15,-70.92,60.8,48,75,36.91,CL,1579375351
29,katsuura,35.13,140.3,42.8,70,75,11.41,JP,1579375392
30,zhuanghe,39.7,122.99,32.0,82,98,1.99,CN,1579375392
31,dikson,73.51,80.55,-9.74,97,100,7.25,RU,1579375392
32,atuona,-9.8,-139.03,81.41,77,84,21.88,PF,1579375393
33,kavieng,-2.57,150.8,84.15,77,100,22.01,PG,1579375393
34,tasiilaq,65.61,-37.64,23.0,85,100,26.4,GL,1579375393
35,saskylakh,71.92,114.08,-8.12,95,96,6.42,RU,1579375393
36,raga,8.46,25.68,73.78,22,42,5.95,SS,1579375394
37,hermanus,-34.42,19.23,64.0,93,98,4.0,ZA,1579375394
38,sombrio,-29.11,-49.62,78.26,58,59,13.82,BR,1579375394
39,tam ky,15.57,108.48,71.6,88,40,1.12,VN,1579375394
40,fare,-16.7,-151.02,81.72,78,100,15.26,PF,1579375394
41,busselton,-33.65,115.33,61.0,38,0,16.33,AU,1579375394
42,mandera,3.94,41.87,86.4,20,6,8.84,KE,1579375395
43,nemuro,43.32,145.57,27.27,67,97,11.03,JP,1579375395
44,tuktoyaktuk,69.45,-133.04,-5.8,70,5,21.92,CA,1579375395
45,esna,25.29,32.55,60.8,59,0,9.17,EG,1579375395
46,mount isa,-20.73,139.5,86.0,12,47,6.93,AU,1579375396
47,new norfolk,-42.78,147.06,55.0,81,75,1.81,AU,1579375396
48,bathsheba,13.22,-59.52,84.2,58,40,23.04,BB,1579375396
49,waipawa,-41.41,175.52,60.01,100,98,9.17,NZ,1579375383
50,cidreira,-30.18,-50.21,73.6,70,1,17.74,BR,1579375396
51,east london,-33.02,27.91,68.0,82,75,6.93,ZA,1579375396
52,bredasdorp,-34.53,20.04,60.8,87,99,6.93,ZA,1579375397
53,port hardy,50.7,-127.42,39.2,93,90,18.34,CA,1579375397
54,brae,60.4,-1.35,44.6,60,57,18.34,GB,1579375397
55,bambous virieux,-20.34,57.76,80.6,88,40,6.93,MU,1579375397
56,teguise,29.06,-13.56,66.2,59,0,10.29,ES,1579375397
57,hobart,-42.88,147.33,55.0,76,90,7.56,AU,1579375217
58,fort nelson,58.81,-122.7,-22.0,74,40,2.24,CA,1579375313
59,muros,42.78,-9.06,55.99,100,75,5.82,ES,1579375370
60,snina,48.99,22.15,28.0,87,44,1.54,SK,1579375398
61,barrow,71.29,-156.79,14.0,85,90,12.75,US,1579375398
62,sao filipe,14.9,-24.5,73.26,66,0,10.27,CV,1579375398
63,ivnya,51.06,36.13,30.2,92,75,4.47,RU,1579375398
64,victoria,22.29,114.16,66.2,72,40,5.82,HK,1579375280
65,saint george,37.1,-113.58,50.0,38,1,2.28,US,1579375399
66,coruripe,-10.13,-36.18,82.62,69,64,12.93,BR,1579375270
67,necochea,-38.55,-58.74,87.01,41,0,5.99,AR,1579375217
68,yellowknife,62.46,-114.35,-31.0,66,20,2.24,CA,1579375399
69,charters towers,-20.1,146.27,74.66,91,0,5.93,AU,1579375400
70,la orilla,17.98,-102.23,90.01,44,7,3.76,MX,1579375400
71,torbay,47.67,-52.73,12.99,72,75,26.4,CA,1579375353
72,el alto,-4.27,-81.21,62.6,100,90,16.11,PE,1579375400
73,comodoro rivadavia,-45.87,-67.5,78.8,34,0,16.11,AR,1579375401
74,carnarvon,-24.87,113.63,77.0,83,16,17.22,AU,1579375401
75,naze,28.37,129.48,59.0,51,93,10.29,JP,1579375401
76,georgetown,5.41,100.34,82.4,83,20,3.36,MY,1579375401
77,arraial do cabo,-22.97,-42.03,78.8,61,75,8.05,BR,1579375401
78,kruisfontein,-34.0,24.73,60.87,79,100,9.86,ZA,1579375401
79,avarua,-21.21,-159.78,80.6,88,100,10.29,CK,1579375402
80,ponta do sol,32.67,-17.1,62.6,72,20,8.05,PT,1579375402
81,lagoa,39.05,-27.98,63.82,90,0,16.22,PT,1579375402
82,bluff,-46.6,168.33,59.0,94,82,3.0,NZ,1579375402
83,mahajanga,-15.72,46.32,80.6,94,40,5.82,MG,1579375402
84,vaitape,-16.52,-151.75,81.64,78,89,15.61,PF,1579375402
85,mahebourg,-20.41,57.7,80.6,88,40,6.93,MU,1579375403
86,magistralnyy,56.17,107.45,11.41,89,100,5.99,RU,1579375403
87,cape town,-33.93,18.42,64.99,67,40,29.97,ZA,1579375374
88,hukuntsi,-24.0,21.75,81.79,36,51,12.73,BW,1579375403
89,san patricio,19.22,-104.7,89.6,70,75,11.23,MX,1579375403
90,balikpapan,-1.27,116.83,83.84,70,58,3.89,ID,1579375404
91,erzin,36.96,36.2,46.99,100,75,3.36,TR,1579375404
92,novopavlovka,51.22,109.21,0.25,97,100,3.4,RU,1579375404
93,dzhebariki-khaya,62.22,135.8,-17.18,98,100,0.51,RU,1579375404
94,belz,47.68,-3.17,46.99,81,18,9.17,FR,1579375404
95,hillsboro,45.52,-122.99,48.0,93,90,8.05,US,1579375261
96,geraldton,-28.77,114.6,66.2,72,23,5.82,AU,1579375405
97,ayia marina,37.75,23.53,48.99,66,75,5.82,GR,1579375405
98,namibe,-15.2,12.15,79.05,74,41,6.15,AO,1579375405
99,hilo,19.73,-155.09,73.4,78,75,8.05,US,1579375405
100,manuk mangkaw,4.8,119.85,82.76,75,0,7.78,PH,1579375405
101,port alfred,-33.59,26.89,66.99,85,100,4.0,ZA,1579375405
102,nome,64.5,-165.41,3.2,59,1,16.11,US,1579375406
103,berlevag,70.86,29.09,28.89,52,10,17.63,NO,1579375406
104,jalu,29.03,21.55,57.49,63,23,10.51,LY,1579375406
105,itacare,-14.28,-39.0,86.0,66,20,10.29,BR,1579375192
106,vvedenka,49.82,36.51,30.2,100,90,6.71,UA,1579375406
107,alofi,-19.06,-169.92,80.6,83,90,23.04,NU,1579375406
108,isfana,39.84,69.53,32.0,43,0,13.42,KG,1579375407
109,kapaa,22.08,-159.32,73.4,56,90,21.92,US,1579375407
110,pavilosta,56.89,21.19,42.8,81,100,18.34,LV,1579375407
111,ko samui,9.54,99.94,81.73,80,87,14.05,TH,1579375407
112,vao,-22.67,167.48,76.41,75,28,15.39,NC,1579375408
113,port hueneme,34.15,-119.2,66.0,55,1,11.41,US,1579375408
114,katherine,-14.47,132.27,82.4,78,40,10.29,AU,1579375408
115,castro,-24.79,-50.01,80.19,50,64,3.89,BR,1579375408
116,hithadhoo,-0.6,73.08,83.37,78,91,13.22,MV,1579375409
117,aksu,41.12,80.26,23.05,70,97,4.76,CN,1579375409
118,provideniya,64.38,-173.3,-4.47,92,82,8.03,RU,1579375409
119,bethel,41.37,-73.41,28.0,85,90,4.7,US,1579375409
120,la ronge,55.1,-105.28,1.4,70,90,12.75,CA,1579375409
121,khatanga,71.97,102.5,-20.81,95,100,7.94,RU,1579375409
122,lavrentiya,65.58,-171.0,-5.31,79,0,0.4,RU,1579375410
123,praia da vitoria,38.73,-27.07,64.4,93,40,13.89,PT,1579375410
124,nikolskoye,59.7,30.79,35.6,82,75,8.95,RU,1579375410
125,rawson,-43.3,-65.1,60.78,72,0,16.4,AR,1579375410
126,muscle shoals,34.74,-87.67,57.99,87,90,13.87,US,1579375410
127,tumwater,47.01,-122.91,48.99,75,75,13.87,US,1579375410
128,belyy yar,53.6,91.39,6.8,65,0,6.71,RU,1579375411
129,puerto ayora,-0.74,-90.35,82.4,74,40,9.17,EC,1579375411
130,nouakchott,18.09,-15.98,80.6,11,0,12.75,MR,1579375411
131,arman,59.7,150.17,1.09,94,100,6.2,RU,1579375411
132,olafsvik,64.89,-23.71,31.84,64,98,10.76,IS,1579375412
133,makakilo city,21.35,-158.09,73.4,72,90,5.82,US,1579375412
134,noumea,-22.28,166.46,79.0,88,1,2.24,NC,1579375412
135,luderitz,-26.65,15.16,69.8,68,0,21.92,NA,1579375412
136,pacific grove,36.62,-121.92,54.0,61,1,5.82,US,1579375412
137,togur,58.36,82.83,3.54,85,77,10.65,RU,1579375413
138,roblin,51.23,-101.36,-3.68,91,100,15.79,CA,1579375413
139,adrar,20.5,-10.07,69.78,18,0,12.15,MR,1579375413
140,ancud,-41.87,-73.82,69.8,56,0,10.29,CL,1579375413
141,zlotow,53.36,17.04,37.4,86,100,9.17,PL,1579375413
142,saveh,35.02,50.36,42.91,67,100,4.14,IR,1579375414
143,tiksi,71.69,128.87,-1.86,86,100,12.28,RU,1579375414
144,knokke-heist,51.33,3.33,44.01,75,48,9.17,BE,1579375414
145,guerrero negro,27.98,-114.06,65.25,35,49,0.98,MX,1579375414
146,bratsk,56.13,101.61,10.4,78,88,20.13,RU,1579375414
147,omsukchan,62.53,155.8,-28.62,94,91,2.55,RU,1579375414
148,newport,51.59,-3.0,39.2,71,97,4.7,GB,1579375173
149,acari,-15.43,-74.62,71.8,72,92,10.38,PE,1579375415
150,kavaratti,10.57,72.64,80.6,73,74,8.63,IN,1579375415
151,manzhouli,49.6,117.43,-10.12,92,20,2.46,CN,1579375415
152,santa isabel do rio negro,-0.41,-65.02,90.48,53,100,6.13,BR,1579375415
153,asau,46.43,26.4,30.99,92,75,10.29,RO,1579375415
154,richards bay,-28.78,32.04,80.44,81,100,23.09,ZA,1579375416
155,ganganagar,29.92,73.88,51.01,50,0,3.56,IN,1579375416
156,port elizabeth,-33.92,25.57,66.2,77,90,10.29,ZA,1579375416
157,pevek,69.7,170.31,-11.07,90,100,1.81,RU,1579375416
158,lata,40.16,-8.33,57.2,82,40,11.41,PT,1579375416
159,camacha,33.08,-16.33,62.6,72,0,5.82,PT,1579375416
160,hay river,60.82,-115.8,-22.0,74,40,5.82,CA,1579375417
161,chokurdakh,70.63,147.92,-18.76,93,97,1.52,RU,1579375417
162,volsk,52.03,47.38,28.92,96,28,2.1,RU,1579375417
163,esperance,-33.87,121.9,60.8,77,90,8.05,AU,1579375228
164,bandarbeyla,9.49,50.81,76.42,77,20,25.37,SO,1579375418
165,korla,41.76,86.15,12.33,75,0,5.17,CN,1579375418
166,port moresby,-9.44,147.18,77.0,94,40,11.41,PG,1579375418
167,cherskiy,68.75,161.3,-25.98,100,97,1.43,RU,1579375418
168,shenzhen,22.55,114.07,66.2,67,75,8.95,CN,1579375419
169,kasongo-lunda,-6.47,16.82,70.81,96,90,2.84,CD,1579375419
170,labuhan,-6.88,112.21,75.42,83,74,2.51,ID,1579375419
171,alta floresta,-9.88,-56.09,93.2,52,35,5.82,BR,1579375419
172,suntar,62.14,117.63,2.64,90,98,5.37,RU,1579375419
173,kabare,-2.47,28.82,61.61,97,100,1.99,CD,1579375420
174,port-gentil,-0.72,8.78,80.6,94,20,3.36,GA,1579375420
175,luanda,-8.84,13.23,82.4,74,40,6.93,AO,1579375242
176,severo-kurilsk,50.68,156.12,15.31,90,83,14.36,RU,1579375420
177,mar del plata,-38.0,-57.56,87.8,35,0,13.87,AR,1579375420
178,deputatskiy,69.3,139.9,-31.38,94,0,1.3,RU,1579375420
179,clyde river,70.47,-68.59,-27.4,67,20,2.24,CA,1579375421
180,cabo san lucas,22.89,-109.91,82.0,44,20,10.29,MX,1579375421
181,marquette,46.53,-87.63,28.99,86,90,7.61,US,1579375421
182,bousso,10.48,16.71,79.93,20,0,8.97,TD,1579375421
183,pachora,20.67,75.35,64.92,51,0,2.44,IN,1579375421
184,santo antonio do ica,-3.1,-67.94,82.22,72,93,1.57,BR,1579375422
185,namatanai,-3.67,152.43,83.14,75,100,11.48,PG,1579375384
186,taltal,-25.4,-70.48,72.95,61,23,7.43,CL,1579375423
187,muli,2.92,73.57,82.63,80,48,15.55,MV,1579375265
188,zilair,52.23,57.44,20.1,97,100,5.59,RU,1579375423
189,huilong,31.81,121.66,42.01,66,100,3.27,CN,1579375423
190,yagodnoye,62.55,149.67,-25.89,97,91,1.9,RU,1579375424
191,boa esperanca,-21.09,-45.57,78.03,79,66,8.55,BR,1579375424
192,buguruslan,53.66,52.44,29.52,96,98,5.44,RU,1579375376
193,sharlyk,52.92,54.75,22.32,97,96,7.94,RU,1579375424
194,key largo,25.09,-80.45,78.01,57,1,17.22,US,1579375424
195,vanimo,-2.67,141.3,82.42,83,100,23.42,PG,1579375424
196,port keats,-14.25,129.55,84.97,77,14,11.77,AU,1579375425
197,kenora,49.82,-94.43,19.4,85,90,9.17,CA,1579375425
198,fortuna,40.6,-124.16,55.99,47,90,4.7,US,1579375425
199,rongcheng,30.63,117.85,35.64,87,96,1.19,CN,1579375425
200,goma,-1.68,29.22,58.62,95,100,2.84,CD,1579375426
201,hami,42.8,93.45,12.24,56,3,2.64,CN,1579375426
202,kutum,14.2,24.67,59.76,35,6,8.14,SD,1579375426
203,san jose,37.34,-121.89,53.01,75,75,2.57,US,1579375427
204,teguldet,57.31,88.17,0.12,86,31,10.09,RU,1579375427
205,pisco,-13.7,-76.22,72.0,30,75,6.93,PE,1579375427
206,butaritari,3.07,172.79,84.51,76,100,14.0,KI,1579375427
207,mankono,8.06,-6.19,90.05,20,0,2.8,CI,1579375427
208,constitucion,-35.33,-72.42,72.54,50,64,7.16,CL,1579375428
209,andenes,69.31,16.12,32.0,72,73,13.87,NO,1579375428
210,talnakh,69.49,88.4,-18.4,75,40,15.66,RU,1579375428
211,olbia,40.92,9.49,53.6,62,40,8.05,IT,1579375337
212,livingston,55.9,-3.52,39.99,85,71,5.82,GB,1579375428
213,micheweni,-4.97,39.83,81.93,79,53,16.82,TZ,1579375428
214,longyearbyen,78.22,15.64,26.6,68,75,27.51,SJ,1579375429
215,chokwe,-24.53,32.98,79.36,85,93,8.5,MZ,1579375429
216,kampot,10.62,104.18,77.0,88,20,6.93,KH,1579375429
217,sanmenxia,34.77,111.18,29.19,63,78,3.53,CN,1579375429
218,luancheng,37.88,114.65,19.4,92,33,2.24,CN,1579375429
219,grootfontein,-19.57,18.12,79.07,42,75,6.08,NA,1579375429
220,lebu,-37.62,-73.65,74.14,38,26,12.77,CL,1579375430
221,joao pinheiro,-17.74,-46.17,84.69,67,99,4.03,BR,1579375430
222,qeshm,26.96,56.27,59.0,71,100,4.7,IR,1579375430
223,la baule-escoublac,47.29,-2.36,46.99,87,48,10.29,FR,1579375430
224,rovaniemi,66.5,25.72,23.0,92,90,13.87,FI,1579375430
225,sabang,5.89,95.32,82.0,80,3,13.58,ID,1579375430
226,kaliyaganj,25.63,88.32,65.28,63,0,6.62,IN,1579375431
227,baoshan,46.56,131.42,3.97,90,98,0.83,CN,1579375431
228,palana,59.12,159.97,7.43,93,99,5.84,RU,1579375431
229,chifeng,42.27,118.96,12.43,59,20,8.81,CN,1579375431
230,novomykolayivka,47.98,35.91,26.6,100,90,4.47,UA,1579375431
231,pringsewu,-5.36,104.97,73.29,95,100,3.11,ID,1579375431
232,salta,-24.79,-65.41,78.8,64,75,4.7,AR,1579375206
233,soyo,-6.13,12.37,82.4,78,20,6.71,AO,1579375432
234,camaiore,43.91,10.24,46.99,100,40,6.93,IT,1579375432
235,boyolangu,-8.12,111.89,73.67,82,0,1.99,ID,1579375432
236,yulara,-25.24,130.99,78.8,39,66,12.75,AU,1579375432
237,sandwick,60.0,-1.25,44.6,52,36,26.4,GB,1579375433
238,aklavik,68.22,-135.01,-4.0,74,20,5.82,CA,1579375433
239,rio gallegos,-51.62,-69.22,68.0,34,40,20.8,AR,1579375433
240,san quintin,30.48,-115.95,59.79,62,70,4.63,MX,1579375433
241,inhumas,-16.36,-49.5,80.6,78,75,9.17,BR,1579375433
242,kahului,20.89,-156.47,69.8,83,40,16.11,US,1579375363
243,caravelas,-17.71,-39.25,80.73,69,34,9.73,BR,1579375434
244,buzuluk,52.78,52.26,27.95,97,95,3.94,RU,1579375434
245,te anau,-45.42,167.72,53.28,92,67,1.61,NZ,1579375434
246,kodiak,57.79,-152.41,35.6,80,90,26.4,US,1579375195
247,merauke,-8.47,140.33,78.58,92,82,6.53,ID,1579375434
248,bassano,50.78,-112.47,-8.0,69,54,4.0,CA,1579375435
249,xining,36.62,101.77,12.24,78,100,3.62,CN,1579375435
250,lorengau,-2.02,147.27,83.77,79,23,24.18,PG,1579375435
251,barentu,15.11,37.59,69.58,60,0,10.51,ER,1579375435
252,abu zabad,12.35,29.25,67.24,28,9,13.91,SD,1579375435
253,hanstholm,57.12,8.62,42.01,86,100,11.99,DK,1579375436
254,cockburn town,21.46,-71.14,77.0,65,75,17.22,TC,1579375267
255,hamilton,39.18,-84.53,51.01,81,90,13.87,US,1579375436
256,qaqortoq,60.72,-46.03,30.2,46,75,44.96,GL,1579375436
257,saint-philippe,-21.36,55.77,80.6,83,100,3.36,RE,1579375436
258,santa luzia,-19.77,-43.85,84.2,65,40,11.41,BR,1579375436
259,kaitangata,-46.28,169.85,56.41,82,51,3.4,NZ,1579375437
260,lasa,46.62,10.7,48.2,73,5,4.7,IT,1579375437
261,sur,22.57,59.53,66.09,55,0,7.38,OM,1579375437
262,mitu,1.2,-70.17,88.45,54,45,4.81,CO,1579375437
263,lakes entrance,-37.88,147.98,60.01,95,99,4.81,AU,1579375437
264,palencia,42.42,-4.5,45.0,79,100,8.99,ES,1579375437
265,centerville,39.63,-84.16,51.8,87,90,23.04,US,1579375438
266,bhaderwah,32.98,75.72,27.5,67,18,4.9,IN,1579375146
267,cayenne,4.93,-52.33,84.2,74,75,12.75,GF,1579375438
268,jardim,-21.48,-56.14,89.13,61,98,7.07,BR,1579375438
269,poum,-20.23,164.02,79.23,78,0,13.58,NC,1579375439
270,abohar,30.15,74.18,51.01,50,0,3.56,IN,1579375439
271,estevan,49.13,-102.98,-9.4,76,75,25.28,CA,1579375439
272,elko,41.0,-115.5,33.8,50,1,3.36,US,1579375439
273,uvira,-3.41,29.15,54.41,98,100,2.55,CD,1579375440
274,mount gambier,-37.83,140.77,59.0,93,90,6.93,AU,1579375298
275,prince rupert,54.32,-130.32,37.4,59,75,16.11,CA,1579375440
276,popondetta,-8.75,148.25,72.82,91,0,3.29,PG,1579375440
277,wanaka,-44.7,169.15,59.0,74,94,1.34,NZ,1579375440
278,culpeper,38.5,-77.97,36.0,69,90,8.05,US,1579375440
279,christchurch,-43.53,172.63,57.99,100,51,1.12,NZ,1579375343
280,yumen,40.28,97.2,16.21,60,0,17.72,CN,1579375441
281,aktau,43.65,51.2,30.2,100,90,17.9,KZ,1579375252
282,bullhead city,35.15,-114.57,61.0,19,40,23.04,US,1579375254
283,sijunjung,-0.69,100.95,71.58,94,96,1.63,ID,1579375441
284,dali,25.7,100.18,35.83,81,0,2.8,CN,1579375442
285,laguna,38.42,-121.42,52.0,76,1,9.17,US,1579375442
286,manggar,-2.88,108.27,81.43,78,20,8.19,ID,1579375442
287,leningradskiy,69.38,178.42,-6.9,100,100,6.4,RU,1579375442
288,banda aceh,5.56,95.32,72.84,95,0,5.41,ID,1579375442
289,ust-nera,64.57,143.2,-43.46,100,95,2.01,RU,1579375442
290,srednekolymsk,67.45,153.68,-19.8,98,95,2.82,RU,1579375443
291,buchanan,5.88,-10.05,84.2,79,20,3.36,LR,1579375443
292,poretskoye,55.2,46.33,32.09,96,100,6.08,RU,1579375443
293,kaeo,-35.1,173.78,62.01,100,0,1.99,NZ,1579375443
294,bow island,49.87,-111.37,-9.0,57,20,6.93,CA,1579375443
295,sovik,65.93,12.47,41.0,75,93,17.22,NO,1579375444
296,madimba,-10.4,40.33,82.4,83,75,20.8,TZ,1579375444
297,vardo,70.37,31.11,24.28,76,3,10.76,NO,1579375444
298,klaksvik,62.23,-6.59,41.0,75,0,12.75,FO,1579375444
299,saint-augustin,51.23,-58.65,-1.14,80,0,17.76,CA,1579375444
300,buraydah,26.33,43.98,60.8,55,13,9.17,SA,1579375445
301,hualmay,-11.1,-77.61,77.68,61,30,10.74,PE,1579375445
302,quatre cocos,-20.21,57.76,80.6,88,40,6.93,MU,1579375445
303,ranong,9.97,98.63,78.01,83,4,3.98,TH,1579375445
304,gawler,-34.6,138.73,63.0,72,75,11.41,AU,1579375445
305,haines junction,60.75,-137.51,-27.22,98,84,7.29,CA,1579375445
306,omagari,39.45,140.48,26.8,77,45,1.79,JP,1579375446
307,robertsport,6.75,-11.37,82.11,82,0,15.79,LR,1579375446
308,itoman,26.12,127.67,60.8,55,75,8.05,JP,1579375446
309,maues,-3.38,-57.72,84.06,86,98,4.09,BR,1579375446
310,prince george,53.92,-122.75,-2.99,83,75,2.24,CA,1579375315
311,ekibastuz,51.67,75.37,19.96,87,100,16.17,KZ,1579375446
312,chute-aux-outardes,49.12,-68.4,1.0,49,1,8.05,CA,1579375447
313,dunedin,-45.87,170.5,61.0,90,88,1.01,NZ,1579375357
314,laela,-8.57,32.05,61.25,94,100,5.23,TZ,1579375447
315,porto novo,6.5,2.6,84.2,83,20,6.93,BJ,1579375447
316,riachao das neves,-11.75,-44.91,92.21,43,5,3.13,BR,1579375447
317,narsaq,60.92,-46.05,30.2,46,75,44.96,GL,1579375447
318,sakakah,29.97,40.21,51.8,53,20,6.38,SA,1579375448
319,swakopmund,-22.68,14.53,66.99,82,68,5.82,NA,1579375448
320,fairmont,39.49,-80.14,46.4,87,90,5.82,US,1579375448
321,raudeberg,61.99,5.14,41.0,80,100,33.33,NO,1579375448
322,peterhead,57.51,-1.8,44.01,65,7,12.75,GB,1579375449
323,hambantota,6.12,81.12,77.0,100,20,6.93,LK,1579375449
324,hovd,48.01,91.64,4.23,58,9,4.72,MN,1579375449
325,kudat,6.88,116.85,80.6,88,75,3.36,MY,1579375449
326,camopi,3.17,-52.32,83.25,75,32,5.79,GF,1579375449
327,olinda,-8.01,-34.86,86.0,66,40,10.29,BR,1579375449
328,goderich,43.75,-81.72,35.01,83,100,7.0,CA,1579375450
329,hasaki,35.73,140.83,37.4,74,75,3.36,JP,1579375450
330,makurdi,7.74,8.51,86.36,18,32,4.85,NG,1579375450
331,sinnamary,5.38,-52.95,80.74,78,23,14.03,GF,1579375450
332,ambalavao,-21.83,46.93,67.14,93,52,3.06,MG,1579375450
333,vila franca do campo,37.72,-25.43,62.6,100,75,5.82,PT,1579375451
334,lukaya,-0.15,31.87,75.2,73,96,2.24,UG,1579375451
335,norman wells,65.28,-126.83,-11.2,76,5,9.17,CA,1579375451
336,dwarka,22.24,68.97,70.36,41,0,17.45,IN,1579375451
337,bengkulu,-3.8,102.27,73.54,93,100,3.65,ID,1579375451
338,codrington,-38.27,141.97,62.2,91,52,11.59,AU,1579375452
339,san isidro,-12.12,-77.05,75.2,73,90,10.29,PE,1579375452
340,sangamner,19.57,74.22,62.49,47,3,4.52,IN,1579375452
341,carbonia,39.17,8.52,53.01,81,40,3.36,IT,1579375452
342,gamba,-2.65,10.0,80.55,80,6,5.84,GA,1579375452
343,copalillo,18.03,-99.12,87.01,34,14,1.01,MX,1579375452
344,veinticinco de mayo,-35.43,-60.17,91.8,19,3,6.62,AR,1579375453
345,sept-iles,50.2,-66.38,5.0,42,40,9.17,CA,1579375428
346,chapais,49.78,-74.85,-7.6,76,20,4.7,CA,1579375453
347,umm lajj,25.02,37.27,61.57,71,76,8.21,SA,1579375454
348,requena,39.49,-1.1,60.01,62,20,4.7,ES,1579375454
349,ilulissat,69.22,-51.1,1.4,37,20,11.41,GL,1579375454
350,aasiaat,68.71,-52.87,-9.09,68,0,6.58,GL,1579375454
351,vestmannaeyjar,63.44,-20.27,37.4,93,75,18.34,IS,1579375454
352,hofn,64.25,-15.21,40.15,67,33,10.27,IS,1579375454
353,itarema,-2.92,-39.92,87.08,61,70,11.34,BR,1579375454
354,port hawkesbury,45.62,-61.35,16.0,78,90,21.92,CA,1579375455
355,leh,34.17,77.58,-12.55,86,24,3.02,IN,1579375455
356,dongsheng,39.82,109.98,8.67,75,0,13.44,CN,1579375455
357,caranavi,-15.82,-67.55,79.84,56,61,2.17,BO,1579375455
358,zhigansk,66.77,123.37,-12.05,95,100,19.1,RU,1579375455
359,do gonbadan,30.36,50.8,53.6,54,75,8.75,IR,1579375456
360,cuamba,-14.8,36.54,73.94,93,100,2.75,MZ,1579375456
361,plettenberg bay,-34.05,23.37,62.73,88,100,19.17,ZA,1579375456
362,omboue,-1.57,9.26,78.21,90,84,3.58,GA,1579375456
363,phan thiet,10.93,108.1,66.88,90,50,2.35,VN,1579375456
364,braganca,-1.05,-46.77,84.61,70,98,5.06,BR,1579375457
365,fallon,39.47,-118.78,41.0,35,75,4.7,US,1579375457
366,la libertad,-2.23,-80.9,84.2,70,97,9.17,EC,1579375457
367,zeya,53.75,127.27,-17.21,99,88,1.12,RU,1579375457
368,yurgamysh,55.37,64.47,22.91,91,44,10.89,RU,1579375457
369,grand gaube,-20.01,57.66,80.6,88,40,6.93,MU,1579375457
370,gavle,60.67,17.14,39.0,92,74,7.0,SE,1579375458
371,siuna,13.73,-84.78,83.44,54,17,7.96,NI,1579375458
372,faanui,-16.48,-151.75,81.64,78,89,15.61,PF,1579375458
373,merrill,45.18,-89.68,28.4,74,90,10.29,US,1579375458
374,tambura,5.6,27.47,79.88,20,59,5.08,SS,1579375458
375,quzhou,28.96,118.87,41.34,87,100,3.09,CN,1579375458
376,saldanha,-33.01,17.94,71.6,49,23,20.8,ZA,1579375459
377,puerto del rosario,28.5,-13.86,66.2,82,0,11.41,ES,1579375459
378,fayaoue,-20.65,166.53,77.72,81,63,16.44,NC,1579375459
379,pitimbu,-7.47,-34.81,86.0,66,75,13.87,BR,1579375460
380,nichinan,31.6,131.37,41.0,86,14,5.01,JP,1579375460
381,tokonou,9.65,-9.78,90.1,15,0,4.12,GN,1579375460
382,palmer,42.16,-72.33,25.0,41,90,5.14,US,1579375460
383,iqaluit,63.75,-68.51,-14.01,75,75,4.7,CA,1579375460
384,pemangkat,1.17,108.97,76.59,92,100,7.27,ID,1579375461
385,klyuchi,52.27,79.17,24.78,96,100,12.66,RU,1579375461
386,coihaique,-45.58,-72.07,75.2,27,20,8.05,CL,1579375461
387,union,40.63,-74.27,28.0,85,90,3.36,US,1579375461
388,arvika,59.66,12.59,41.0,100,45,5.82,SE,1579375407
389,salinopolis,-0.61,-47.36,82.06,77,96,11.77,BR,1579375462
390,long beach,33.77,-118.19,68.0,34,1,2.37,US,1579375462
391,ekuvukeni,-28.47,30.16,68.05,91,100,2.84,ZA,1579375462
392,verkhnevilyuysk,63.45,120.32,-2.79,97,90,4.81,RU,1579375462
393,port pirie,-33.18,138.02,66.2,72,22,9.17,AU,1579375463
394,wahiawa,21.5,-158.02,73.4,72,90,5.82,US,1579375463
395,adrasmon,40.65,69.99,32.0,39,0,13.42,TJ,1579375463
396,beloha,-25.17,45.05,73.4,90,0,4.61,MG,1579375463
397,lodja,-3.48,23.43,68.59,98,100,1.97,CD,1579375463
398,kalabo,-14.97,22.68,77.16,56,80,4.34,ZM,1579375464
399,rorvik,64.86,11.24,41.0,83,90,4.0,NO,1579375464
400,sao francisco,-15.95,-44.86,89.42,53,53,2.55,BR,1579375464
401,searcy,35.25,-91.74,64.4,59,75,9.17,US,1579375464
402,borogontsy,62.67,131.17,-22.95,97,90,4.47,RU,1579375464
403,bugko,12.54,124.79,73.53,96,34,1.63,PH,1579375464
404,ucluelet,48.93,-125.55,46.99,93,90,11.41,CA,1579375306
405,constantine,36.37,6.61,44.6,75,75,5.82,DZ,1579375465
406,tan an,10.53,106.42,75.2,83,40,3.36,VN,1579375465
407,bilma,18.69,12.92,60.8,33,0,4.92,NE,1579375465
408,mahmudabad,27.3,81.12,57.2,93,90,2.24,IN,1579375466
409,bonthe,7.53,-12.51,83.12,70,0,13.09,SL,1579375466
410,tadine,-21.55,167.88,73.56,82,33,10.18,NC,1579375466
411,khuzdar,27.74,66.64,42.57,39,45,2.08,PK,1579375466
412,businga,3.33,20.88,79.93,28,73,0.31,CD,1579375466
413,mattru,7.62,-11.83,84.31,63,0,8.79,SL,1579375466
414,port shepstone,-30.74,30.45,71.51,88,100,14.74,ZA,1579375467
415,grindavik,63.84,-22.43,33.8,86,90,17.22,IS,1579375467
416,yuanping,38.72,112.76,11.55,72,0,5.28,CN,1579375467
417,sayyan,15.17,44.32,52.07,16,0,1.07,YE,1579375467
418,den helder,52.96,4.76,43.0,75,75,11.41,NL,1579375238
419,tiarei,-17.53,-149.33,86.0,62,20,17.22,PF,1579375468
420,orange cove,36.62,-119.31,52.0,100,1,5.17,US,1579375468
421,nicolas bravo,18.45,-88.92,84.2,66,40,8.05,MX,1579375468
422,shirvan,39.95,48.9,39.13,72,89,6.62,AZ,1579375468
423,champerico,14.3,-91.92,95.0,44,40,6.93,GT,1579375468
424,viedma,-40.81,-63.0,80.82,33,0,17.92,AR,1579375469
425,kharp,66.8,65.81,-14.33,93,9,10.65,RU,1579375469
426,karratha,-20.74,116.85,84.94,75,100,4.14,AU,1579375469
427,sao mateus do sul,-25.87,-50.38,84.61,41,74,1.86,BR,1579375469
428,okha,53.57,142.95,-7.4,92,0,5.46,RU,1579375469
429,lompoc,34.64,-120.46,59.0,50,1,6.93,US,1579375219
430,kamaishi,39.27,141.88,29.79,78,97,6.26,JP,1579375470
431,lanzhou,36.06,103.79,26.01,84,100,2.24,CN,1579375360
432,luau,-10.71,22.22,68.85,94,100,6.17,AO,1579375470
433,karasjok,69.47,25.51,14.0,78,99,55.25,NO,1579375470
434,calahorra,42.31,-1.97,46.0,93,90,12.75,ES,1579375470
435,rio grande,-32.03,-52.1,84.2,48,20,13.87,BR,1579375419
436,zhangye,38.93,100.45,19.67,63,0,5.28,CN,1579375471
437,lagos,6.58,3.75,84.2,79,4,8.05,NG,1579375358
438,puerto real,36.53,-6.19,61.0,100,90,13.87,ES,1579375471
439,ukiah,39.15,-123.21,55.0,93,75,2.42,US,1579375472
440,ankazoabo,-22.28,44.52,75.0,79,56,1.63,MG,1579375472
441,san-pedro,4.75,-6.64,83.03,79,1,12.64,CI,1579375472
442,senneterre,48.38,-77.23,5.0,71,90,9.17,CA,1579375472
443,linjiang,41.81,126.91,10.29,92,100,3.62,CN,1579375472
444,bad windsheim,49.5,10.42,39.0,100,90,3.36,DE,1579375472
445,chuy,-33.7,-53.46,78.93,37,0,5.23,UY,1579375473
446,ambilobe,-13.2,49.05,78.35,89,100,4.21,MG,1579375473
447,high level,58.52,-117.14,-23.8,74,20,2.24,CA,1579375473
448,veghel,51.6,5.53,41.0,93,75,5.82,NL,1579375473
449,muriwai beach,-36.82,174.45,64.99,88,0,4.7,NZ,1579375474
450,nanortalik,60.14,-45.24,29.84,69,100,14.76,GL,1579375474
451,akhnur,32.87,74.73,50.0,81,40,2.84,IN,1579375474
452,faya,18.39,42.45,55.4,47,6,4.88,SA,1579375474
453,egvekinot,66.32,-179.17,-10.59,96,97,10.94,RU,1579375474
454,pandan,14.05,124.17,78.89,81,94,19.93,PH,1579375475
455,rafsanjan,30.41,55.99,52.41,45,100,8.48,IR,1579375475
456,mangrol,21.12,70.12,68.88,46,0,22.82,IN,1579375475
457,canavieiras,-15.68,-38.95,87.8,66,18,9.17,BR,1579375475
458,metro,-5.11,105.31,77.31,83,91,4.27,ID,1579375475
459,roseburg,43.22,-123.34,51.8,57,90,3.36,US,1579375475
460,albemarle,35.35,-80.2,48.99,60,90,5.82,US,1579375476
461,chumikan,54.72,135.31,-9.47,87,0,4.29,RU,1579375476
462,bosaso,11.28,49.18,75.76,75,0,17.9,SO,1579375476
463,addis abeba,9.03,38.75,57.2,62,20,13.87,ET,1579375191
464,timberlake,37.32,-79.26,39.2,55,90,11.41,US,1579375476
465,belmonte,-15.86,-38.88,87.8,66,23,9.17,BR,1579375476
466,chuka,-0.33,37.65,62.51,77,69,4.18,KE,1579375477
467,urumqi,43.8,87.6,5.0,84,11,2.24,CN,1579375477
468,marsaxlokk,35.84,14.54,55.99,76,20,17.22,MT,1579375477
469,saint-francois,46.42,3.91,39.0,86,7,3.71,FR,1579375477
470,elat,29.56,34.95,62.6,59,40,4.56,IL,1579375477
471,kumphawapi,17.11,103.01,73.49,52,0,6.96,TH,1579375477
472,bairiki,1.33,172.98,82.4,83,75,6.93,KI,1579375478
473,padang,-0.95,100.35,68.63,95,100,4.76,ID,1579375478
474,vilhena,-12.74,-60.15,91.4,52,40,5.82,BR,1579375478
475,mpanda,-6.37,31.04,65.16,99,100,2.71,TZ,1579375478
476,abonnema,4.71,6.79,83.19,71,3,9.66,NG,1579375479
477,hammerfest,70.66,23.68,23.0,67,99,28.86,NO,1579375479
478,porto de moz,-1.75,-52.24,88.61,63,52,3.74,BR,1579375479
479,cabedelo,-6.98,-34.83,86.0,66,75,13.87,BR,1579375480
480,dingle,11.0,122.67,74.28,89,0,8.05,PH,1579375480
481,khorol,49.78,33.28,30.9,88,0,4.72,UA,1579375480
482,north platte,41.12,-100.77,36.0,50,1,17.22,US,1579375480
483,ballina,-28.87,153.57,71.6,94,96,4.7,AU,1579375480
484,abu samrah,35.3,37.18,47.3,84,89,3.94,SY,1579375480
485,margate,51.38,1.39,43.0,73,1,2.24,GB,1579375480
486,ajaccio,42.0,8.92,53.6,76,75,5.82,FR,1579375481
487,muroto,33.28,134.15,36.79,59,2,5.99,JP,1579375481
488,willowmore,-33.29,23.49,56.19,88,100,9.6,ZA,1579375481
489,atar,20.52,-13.05,74.21,14,71,17.2,MR,1579375481
490,capreol,46.71,-80.92,10.4,85,90,19.46,CA,1579375481
491,dinguiraye,11.3,-10.72,87.89,12,12,1.1,GN,1579375482
492,tupiza,-21.45,-65.72,68.09,40,65,13.18,BO,1579375482
493,angoche,-16.23,39.91,79.81,92,100,6.58,MZ,1579375482
494,honiara,-9.43,159.95,71.6,100,20,3.78,SB,1579375337
495,marsh harbour,26.54,-77.06,69.44,70,84,24.96,BS,1579375482
496,cleveland,41.5,-81.7,39.99,93,90,9.17,US,1579375409
497,novonukutskiy,53.7,102.71,13.21,83,95,10.13,RU,1579375483
498,petauke,-14.24,31.33,69.71,97,95,3.78,ZM,1579375483
499,sitka,57.05,-135.33,33.8,47,90,26.4,US,1579375483
500,fukue,32.69,128.84,48.2,76,40,11.41,JP,1579375483
501,bereda,43.27,-7.54,51.01,100,75,5.82,ES,1579375483
502,burdur,37.72,30.29,32.0,68,0,6.93,TR,1579375483
503,jizan,17.33,42.67,77.0,73,20,4.7,SA,1579375484
504,plumlov,49.47,17.02,32.0,100,90,4.7,CZ,1579375484
505,henties bay,-22.12,14.28,66.99,87,41,1.99,NA,1579375484
506,buritizeiro,-17.35,-44.96,85.05,65,76,4.47,BR,1579375484
507,bull savanna,17.89,-77.59,80.89,54,0,11.88,JM,1579375484
508,manono,-7.3,27.42,70.79,96,84,5.19,CD,1579375484
509,gigmoto,13.78,124.39,79.34,80,76,20.51,PH,1579375485
510,shakiso,5.75,38.92,67.89,27,24,5.61,ET,1579375485
511,abnub,27.27,31.15,57.2,58,37,13.87,EG,1579375485
512,encarnacion,-27.33,-55.9,91.4,55,75,9.17,PY,1579375485
513,montepuez,-13.13,39.0,75.38,92,100,7.27,MZ,1579375353
514,baikunthpur,23.25,82.55,63.97,76,87,3.27,IN,1579375485
515,aksarayskiy,46.79,48.01,32.0,94,90,6.71,RU,1579375486
516,burnie,-41.07,145.92,54.84,80,60,13.78,AU,1579375486
517,kurchum,48.57,83.65,14.74,93,100,2.37,KZ,1579375486
518,lubaczow,50.16,23.12,30.99,97,30,1.99,PL,1579375486
519,russell,32.35,-85.2,62.6,63,90,5.82,US,1579375486
520,portland,45.52,-122.68,48.0,93,90,9.17,US,1579374971
521,kapoeta,4.77,33.59,90.75,18,1,2.86,SS,1579375487
522,college,64.86,-147.8,-0.4,73,0,1.59,US,1579375487
523,winnemucca,40.97,-117.74,41.0,38,1,5.82,US,1579375204
524,nadvoitsy,63.87,34.32,33.26,98,100,8.61,RU,1579375488
525,byron bay,-28.65,153.62,72.0,94,65,4.7,AU,1579375488
526,oistins,13.07,-59.53,84.2,58,40,23.04,BB,1579375286
527,magadan,59.57,150.8,-0.42,93,99,6.85,RU,1579375488
528,los llanos de aridane,28.66,-17.92,66.2,68,40,8.05,ES,1579375488
529,coro,11.4,-69.67,80.29,75,68,20.83,VE,1579375489
530,gongzhuling,43.5,124.82,14.4,96,100,3.49,CN,1579375267
531,samarai,-10.62,150.67,76.82,86,5,4.36,PG,1579375384
532,majene,-3.54,118.97,75.83,87,99,3.65,ID,1579375489
533,the valley,18.22,-63.06,84.0,61,40,12.75,AI,1579375194
534,tilichiki,60.47,166.1,-10.1,91,0,5.01,RU,1579375490
535,antofagasta,-23.65,-70.4,75.2,60,20,12.75,CL,1579375490
536,adavere,58.71,25.9,37.0,93,100,14.99,EE,1579375490
537,abalak,58.13,68.59,18.93,95,100,6.29,RU,1579375490
538,bourges,47.25,2.42,41.0,86,9,8.05,FR,1579375491
539,san pedro,14.35,121.02,77.0,83,20,9.17,PH,1579375491
540,kirkcudbright,54.84,-4.05,41.0,95,100,4.14,GB,1579375491
541,high prairie,55.43,-116.49,-21.14,95,66,4.12,CA,1579375491
542,soe,-9.86,124.28,75.47,80,96,4.27,ID,1579375491
543,baniyas,35.18,35.95,50.0,87,75,4.7,SY,1579375492
544,havre-saint-pierre,50.23,-63.6,6.8,46,1,9.17,CA,1579375492
545,ponta delgada,37.73,-25.67,62.6,100,75,5.82,PT,1579375198
546,rabo de peixe,37.8,-25.58,62.6,100,75,5.82,PT,1579375492
547,isla mujeres,21.23,-86.73,84.2,58,75,13.87,MX,1579375492
548,terme,41.21,36.97,39.2,80,90,6.93,TR,1579375492
549,eyl,7.98,49.82,76.93,77,6,27.56,SO,1579375493
550,monrovia,6.3,-10.8,84.2,79,20,3.36,LR,1579375493
551,fujin,47.26,132.03,-2.58,95,39,2.8,CN,1579375493
552,gilgit,35.92,74.31,1.11,47,43,4.12,PK,1579375493
553,ust-uda,54.17,103.03,15.76,91,99,12.73,RU,1579375494
